[
  {
    "website": "http://team1138robotics.com",
    "name": "Aerojet Rocketdyne / Xerox Corporation / JRM Enterprises / Accurate Engineering Services / McConnell, Montalvo& Assoc. Inc. / Six8 Motorsports / Frazier Aviation / Snap! Productions / Vico Tool and Die / Medtronic & CHAMINADE COLLEGE PREPARATORY HIGH SCHOOL",
    "locality": "West Hills",
    "rookie_year": 2003,
    "region": "CA",
    "team_number": 1138,
    "location": "West Hills, CA, USA",
    "key": "frc1138",
    "country_name": "USA",
    "nickname": "Eagle Engineering"
  },
  {
    "website": "http://www.hw.com",
    "name": "HARVARD-WESTLAKE SCHOOL",
    "locality": "Studio City",
    "rookie_year": 2003,
    "region": "CA",
    "team_number": 1148,
    "location": "Studio City, CA, USA",
    "key": "frc1148",
    "country_name": "USA",
    "nickname": "Wafflebots"
  },
  {
    "website": "http://www.titaniumrobotics.com",
    "name": "The Boeing Company/NASA-JPL/SMHS PTSA/Chinese Club of San Marino & SAN MARINO HIGH",
    "locality": "San Marino",
    "rookie_year": 2003,
    "region": "CA",
    "team_number": 1160,
    "location": "San Marino, CA, USA",
    "key": "frc1160",
    "country_name": "USA",
    "nickname": "Titanium"
  },
  {
    "website": "http://www.torbots.com",
    "name": "Northrop Grumman/The Boeing Company/El Camino College/Raytheon/Moog Aircraft Group/Intuitive Surgical/Torrance Education Foundation/ExxonMobil/Walteria Men's Club & SOUTH HIGH",
    "locality": "Torrance",
    "rookie_year": 2003,
    "region": "CA",
    "team_number": 1197,
    "location": "Torrance, CA, USA",
    "key": "frc1197",
    "country_name": "USA",
    "nickname": "TorBots"
  },
  {
    "website": "http://www.eaglerobotics.com",
    "name": "Melfred Borzall/Boeing/Pacific Gas & Electric/United Launch Alliance & ARROYO GRANDE HIGH",
    "locality": "Arroyo Grande",
    "rookie_year": 2004,
    "region": "CA",
    "team_number": 1388,
    "location": "Arroyo Grande, CA, USA",
    "key": "frc1388",
    "country_name": "USA",
    "nickname": "Eagle Robotics"
  },
  {
    "website": "http://anaheim.auhsd.k12.ca.us/robotics/?rn=4987",
    "name": "The Boeing Company/MAES/Raytheon & ANAHEIM HIGH",
    "locality": "Anaheim",
    "rookie_year": 2004,
    "region": "CA",
    "team_number": 1438,
    "location": "Anaheim, CA, USA",
    "key": "frc1438",
    "country_name": "USA",
    "nickname": "towne_d@auhsd.us"
  },
  {
    "website": null,
    "name": "Windward School Robotics/Boeing & WINDWARD SCHOOL",
    "locality": "Los Angeles",
    "rookie_year": 2004,
    "region": "CA",
    "team_number": 1452,
    "location": "Los Angeles, CA, USA",
    "key": "frc1452",
    "country_name": "USA",
    "nickname": "Omnicats"
  },
  {
    "website": "http://team1515.org",
    "name": "Walt Disney Imagineering/Raytheon/UCLA Racing/PlanetBravo/BHHS PTSA/WireTechEDM/YapStone/BHEF/LA County R.O.P. & BEVERLY HILLS HIGH & BEVERLY HILLS HIGH",
    "locality": "Beverly Hills",
    "rookie_year": 2005,
    "region": "CA",
    "team_number": 1515,
    "location": "Beverly Hills, CA, USA",
    "key": "frc1515",
    "country_name": "USA",
    "nickname": "MorTorq"
  },
  {
    "website": "http://www.team1661.org",
    "name": "B&A Engineering/Industrial Metal Supply & The Buckley School",
    "locality": "Sherman Oaks",
    "rookie_year": 2005,
    "region": "CA",
    "team_number": 1661,
    "location": "Sherman Oaks, CA, USA",
    "key": "frc1661",
    "country_name": "USA",
    "nickname": "Griffitrons"
  },
  {
    "website": "http://www.dpengineering.org/1717/welcome",
    "name": "Raytheon/Mosher Foundation/Outhwaite Foundation/Valley Precision Products/lynda.com/P&G Alumni Association/Neal Feay Company/Edison International/Rincon Engineering/Amgen Foundation/ATK Space/Tecolote Research, Inc./Allergan Foundation/Downey's/Lockheed Martin/Enerpro, Inc./Toyon Research Corporation/FLIR/Montecito Bank & Trust/Rincon Technology/Las Cumbres Observatory Global Telescope/Citrix Online/Impulse Advanced Communications/AFAR Communications Inc./Silvergreens/City of Goleta/Santa Barbar",
    "locality": "Goleta",
    "rookie_year": 2006,
    "region": "CA",
    "team_number": 1717,
    "location": "Goleta, CA, USA",
    "key": "frc1717",
    "country_name": "USA",
    "nickname": "D'Penguineers"
  },
  {
    "website": "http://HHSEngineering.com",
    "name": "Walt Disney Imagineering/The Boeing Company & HAWTHORNE HIGH",
    "locality": "Hawthorne",
    "rookie_year": 1999,
    "region": "CA",
    "team_number": 207,
    "location": "Hawthorne, CA, USA",
    "key": "frc207",
    "country_name": "USA",
    "nickname": "METALCRAFTERS"
  },
  {
    "website": "http://team2404.org",
    "name": "NASA-JPL/Ontic BBA/Lockheed Martin & Neighbors Empowering Youth (NEY)",
    "locality": "Altadena",
    "rookie_year": 2008,
    "region": "CA",
    "team_number": 2404,
    "location": "Altadena, CA, USA",
    "key": "frc2404",
    "country_name": "USA",
    "nickname": "TNT"
  },
  {
    "website": "http://www.baldwinrobotics.com",
    "name": "The Boeing Company/MEDB Ke Alahele Education Fund/Robotics Organizing Committee-Friends of Hawaii Robotics/Maui Electric Co., Ltd./Warren S. Unemori Engineering/Monsanto Fund/BAE Systems/Aloha Shell/Textron Systems/FedEx/Pono Communications/Maui Zipline/Alaka'ina Foundation/AFCEA Hawaii/McDonald's & HENRY PERRINE BALDWIN HIGH SCHOOL",
    "locality": "Wailuku",
    "rookie_year": 2008,
    "region": "HI",
    "team_number": 2439,
    "location": "Wailuku, HI, USA",
    "key": "frc2439",
    "country_name": "USA",
    "nickname": "Bearbotics"
  },
  {
    "website": "http://mauihs.k12.hi.us/robotics",
    "name": "Maui Economic and Development Board (MEDB)/BAE Systems/Friends of Hawaii Robotics/Boeing Company/Maui Electric Company/Hawaii Space Grant Consortium/McDonalds of Hawaii/Maui High School Foundation & MAUI HIGH SCHOOL",
    "locality": "Kahului",
    "rookie_year": 2008,
    "region": "HI",
    "team_number": 2443,
    "location": "Kahului, HI, USA",
    "key": "frc2443",
    "country_name": "USA",
    "nickname": "Blue Thunder"
  },
  {
    "website": "http://www.corazondechileno.cl",
    "name": "Universidad Andres Bello/Sabic Polymershapes/Caterpillar Foundation/National Instruments Chile/Rotary Club de Santiago/Team 1644, RoboSkunks/Covarrubias y Silva abogados/Tiburcio De la Carcova/Alicia Van Pelt & Corporacio Corazon Tecnologico de Chile",
    "locality": "Santiago",
    "rookie_year": 2008,
    "region": "RM",
    "team_number": 2576,
    "location": "Santiago, RM, Chile",
    "key": "frc2576",
    "country_name": "Chile",
    "nickname": "Chilean Heart"
  },
  {
    "website": "http://penhighrobotics.tk",
    "name": "Peninsula Education Foundation & PALOS VERDES PENINSULA HIGH",
    "locality": "Rolling Hills Estates",
    "rookie_year": 2008,
    "region": "CA",
    "team_number": 2637,
    "location": "Rolling Hills Estates, CA, USA",
    "key": "frc2637",
    "country_name": "USA",
    "nickname": "Panthers"
  },
  {
    "website": "http://www.team2839.org",
    "name": "Nordson Asymtek / ViaSat / D & K Engineering / Qualcomm / Abbott Labs / BAE Systems / Pre-Cast Installation / RSTG / Solatube / ScrollMotion / PowerPlus & ESCONDIDO CHARTER HIGH",
    "locality": "Escondido",
    "rookie_year": 2009,
    "region": "CA",
    "team_number": 2839,
    "location": "Escondido, CA, USA",
    "key": "frc2839",
    "country_name": "USA",
    "nickname": "The Daedalus Project"
  },
  {
    "website": "http://www.bcrobotics.org",
    "name": "Northrop Grumman/The Boeing Company & REDONDO UNION HIGH & MIRA COSTA HIGH",
    "locality": "Redondo Beach",
    "rookie_year": 1999,
    "region": "CA",
    "team_number": 294,
    "location": "Redondo Beach, CA, USA",
    "key": "frc294",
    "country_name": "USA",
    "nickname": "Beach Cities Robotics"
  },
  {
    "website": "http://www.team330.org",
    "name": "NASA-JPL/Raytheon/J&F Machine & HOPE CHAPEL ACADEMY",
    "locality": "Hermosa Beach",
    "rookie_year": 1999,
    "region": "CA",
    "team_number": 330,
    "location": "Hermosa Beach, CA, USA",
    "key": "frc330",
    "country_name": "USA",
    "nickname": "The Beach Bots"
  },
  {
    "website": "http://www.team3309.org",
    "name": "The Boeing Company/Hamrock/Moseys' Production Machinists/Hyundai Motors America/Raytheon/Applied Medical/Serra Laser/Will-Mann/SoCal Devs & SERVITE HIGH SCHOOL",
    "locality": "Anaheim",
    "rookie_year": 2010,
    "region": "CA",
    "team_number": 3309,
    "location": "Anaheim, CA, USA",
    "key": "frc3309",
    "country_name": "USA",
    "nickname": "Friarbots"
  },
  {
    "website": "http://www.nohorobo3328.com",
    "name": "Comcast-NBCUniversal / Walt Disney Imagineering / Ease Entertainment Services & NORTH HOLLYWOOD SENIOR HIGH",
    "locality": "North Hollywood",
    "rookie_year": 2010,
    "region": "CA",
    "team_number": 3328,
    "location": "North Hollywood, CA, USA",
    "key": "frc3328",
    "country_name": "USA",
    "nickname": "NohoRobo"
  },
  {
    "website": "http://www.spartatroniks.org",
    "name": "General Dynamics / Lockheed Martin / Melfred Borzall / EnergyPartners Fund / United Launch Alliance / FLIR Inc. / Center for Applied Competitive Technologies / PG&E Corp / Best Buy Children's Foundation / Softec, Inc. & ORCUTT ACADEMY CHARTER",
    "locality": "Orcutt",
    "rookie_year": 2011,
    "region": "CA",
    "team_number": 3512,
    "location": "Orcutt, CA, USA",
    "key": "frc3512",
    "country_name": "USA",
    "nickname": "Spartatroniks"
  },
  {
    "website": "https://sites.google.com/site/westadamsrobotics",
    "name": "Amgen / Roddenberry Foundation / The Boeing Company & WEST ADAMS PREPARATORY HIGH",
    "locality": "Los Angeles",
    "rookie_year": 2011,
    "region": "CA",
    "team_number": 3752,
    "location": "Los Angeles, CA, USA",
    "key": "frc3752",
    "country_name": "USA",
    "nickname": "Roaring Robo-Panthers"
  },
  {
    "website": null,
    "name": "ST MARY'S ACADEMY",
    "locality": "INGLEWOOD",
    "rookie_year": 2011,
    "region": "CA",
    "team_number": 3759,
    "location": "INGLEWOOD, CA, USA",
    "key": "frc3759",
    "country_name": "USA",
    "nickname": "SMARTBOTS"
  },
  {
    "website": "http://www.pantherbotics.org",
    "name": "California Community Colleges / Amgen / IEEE & NEWBURY PARK HIGH",
    "locality": "Newbury Park",
    "rookie_year": 2011,
    "region": "CA",
    "team_number": 3863,
    "location": "Newbury Park, CA, USA",
    "key": "frc3863",
    "country_name": "USA",
    "nickname": "Pantherbotics"
  },
  {
    "website": null,
    "name": "Lahainaluna High School Foundation/BAE Systems/MEDB & LAHAINALUNA HIGH SCHOOL",
    "locality": "Lahaina",
    "rookie_year": 2011,
    "region": "HI",
    "team_number": 3882,
    "location": "Lahaina, HI, USA",
    "key": "frc3882",
    "country_name": "USA",
    "nickname": "Lunas"
  },
  {
    "website": "http://www.team4element.com",
    "name": "Gibbs CAM/SolidWorks/Sawing Services/WAAG/Full Scale Effects/Roberts Tool Co. & HIGH TECH LA",
    "locality": "Van Nuys",
    "rookie_year": 1997,
    "region": "CA",
    "team_number": 4,
    "location": "Van Nuys, CA, USA",
    "key": "frc4",
    "country_name": "USA",
    "nickname": "Team 4 ELEMENT"
  },
  {
    "website": "http://www.team4019.org",
    "name": "The Boeing Company  / Bishop Wisecarver / Leap Motion / Tesla Motors / PMD Technologies / Altium Limited  / Git Hub / Igus / 3D Robotics  / Site 5 & BRIDGES ACADEMY",
    "locality": "Studio City",
    "rookie_year": 2012,
    "region": "CA",
    "team_number": 4019,
    "location": "Studio City, CA, USA",
    "key": "frc4019",
    "country_name": "USA",
    "nickname": "Mechanical Paradise"
  },
  {
    "website": "http://oastem.org",
    "name": "Oxford Academy Boosters/NASA/Boeing/Oxford Academy Foundation/Sir Speedy/Digivation Industries/The Zhang Family/J & F Machine/The Lu Family/jcpenney & OXFORD ACADEMY",
    "locality": "Cypress",
    "rookie_year": 2012,
    "region": "CA",
    "team_number": 4079,
    "location": "Cypress, CA, USA",
    "key": "frc4079",
    "country_name": "USA",
    "nickname": "Quantum Leap"
  },
  {
    "website": "https://www.facebook.com/FrcTeam4201TheVitruvianBots",
    "name": "Wiseburn School District/Embrace Apparel/Northrop Grumman/The Boeing Company/Raytheon/COM DEV USA/Institute for Creative Technologies, USC/Elite Technologies/Gardena Specialized Finishing/MiCIAN/WyzAnt & DA VINCI SCIENCE",
    "locality": "Hawthorne",
    "rookie_year": 2012,
    "region": "CA",
    "team_number": 4201,
    "location": "Hawthorne, CA, USA",
    "key": "frc4201",
    "country_name": "USA",
    "nickname": "Vitruvian Bots"
  },
  {
    "website": "http://www.vikings4276.com",
    "name": "The Boeing Company / LaserFiche / Abrasive Waterjet and CNC, Inc. & MARINA HIGH",
    "locality": "Huntington Beach",
    "rookie_year": 2012,
    "region": "CA",
    "team_number": 4276,
    "location": "Huntington Beach, CA, USA",
    "key": "frc4276",
    "country_name": "USA",
    "nickname": "Viking Robotics"
  },
  {
    "website": null,
    "name": "The Boeing Company/Western Digital/StayLinked Corporation & EL MODENA HIGH & VILLA PARK HIGH & CANYON HIGH",
    "locality": "Orange",
    "rookie_year": 2012,
    "region": "CA",
    "team_number": 4322,
    "location": "Orange, CA, USA",
    "key": "frc4322",
    "country_name": "USA",
    "nickname": "Clockwork Oranges"
  },
  {
    "website": "http://www.epicrobotz.com",
    "name": "Boeing/Walt Disney Co/Signal Hill Petroleum/Penske GMC-Buick & VALLEY CHRISTIAN SCHOOL SYSTEM",
    "locality": "Cerritos",
    "rookie_year": 2012,
    "region": "CA",
    "team_number": 4415,
    "location": "Cerritos, CA, USA",
    "key": "frc4415",
    "country_name": "USA",
    "nickname": "EPIC Robotz"
  },
  {
    "website": null,
    "name": "NEW ROADS SCHOOL",
    "locality": "Santa Monica",
    "rookie_year": 2013,
    "region": "CA",
    "team_number": 4501,
    "location": "Santa Monica, CA, USA",
    "key": "frc4501",
    "country_name": "USA",
    "nickname": "Humans"
  },
  {
    "website": "http://www.sunnyhills-engineering.net",
    "name": "Sweinhart Electric Company / Boeing Co. / Brown Pacific, Inc. / Sunny Hills Foundation for Education / Raytheon / OneBeacon / UTC Aerospace Systems / Empire Container Corporation & SUNNY HILLS HIGH",
    "locality": "Fullerton",
    "rookie_year": 2013,
    "region": "CA",
    "team_number": 4574,
    "location": "Fullerton, CA, USA",
    "key": "frc4574",
    "country_name": "USA",
    "nickname": "Average Joe's"
  },
  {
    "website": "http://www.ovrobotics.com",
    "name": "The Boeing Company/Option One Engineering & OCEAN VIEW HIGH",
    "locality": "Huntington Beach",
    "rookie_year": 2013,
    "region": "CA",
    "team_number": 4619,
    "location": "Huntington Beach, CA, USA",
    "key": "frc4619",
    "country_name": "USA",
    "nickname": "HawkBots"
  },
  {
    "website": null,
    "name": "FAIRMONT PREPARATORY ACADEMY",
    "locality": "Anaheim",
    "rookie_year": 2014,
    "region": "CA",
    "team_number": 4913,
    "location": "Anaheim, CA, USA",
    "key": "frc4913",
    "country_name": "USA",
    "nickname": "Huskyteers"
  },
  {
    "website": "http://www.lastreetbots.com",
    "name": "Theodore Roosevelt Senior High School",
    "locality": "Los Angeles",
    "rookie_year": 2014,
    "region": "CA",
    "team_number": 4964,
    "location": "Los Angeles, CA, USA",
    "key": "frc4964",
    "country_name": "USA",
    "nickname": "LA Streetbots"
  },
  {
    "website": null,
    "name": "Roddenberry Foundation & BENJAMIN FRANKLIN SENIOR HIGH",
    "locality": "Los Angeles",
    "rookie_year": 2014,
    "region": "CA",
    "team_number": 5089,
    "location": "Los Angeles, CA, USA",
    "key": "frc5089",
    "country_name": "USA",
    "nickname": "Robo-Nerds"
  },
  {
    "website": "http://romanoid5100.blogspot.com",
    "name": "The Harrison Trust / AndyMark & LOS ANGELES SENIOR HIGH",
    "locality": "Los Angeles",
    "rookie_year": 2014,
    "region": "CA",
    "team_number": 5100,
    "location": "Los Angeles, CA, USA",
    "key": "frc5100",
    "country_name": "USA",
    "nickname": "Romanoid"
  },
  {
    "website": "http://team5102.com",
    "name": "Aluma-Tech CNC Machining/MindBody/Allan Hancock College/2014 FRC Rookie Grant & Police Activities League",
    "locality": "Santa Maria",
    "rookie_year": 2014,
    "region": "CA",
    "team_number": 5102,
    "location": "Santa Maria, CA, USA",
    "key": "frc5102",
    "country_name": "USA",
    "nickname": "PAL Robotics"
  },
  {
    "website": "http://www.westtorrancerobotics.org",
    "name": "NASA / Northrop Grumman / PTC / Raytheon / Boeing / Honda & WEST HIGH",
    "locality": "Torrance",
    "rookie_year": 2014,
    "region": "CA",
    "team_number": 5124,
    "location": "Torrance, CA, USA",
    "key": "frc5124",
    "country_name": "USA",
    "nickname": "West Torrance Robotics"
  },
  {
    "website": null,
    "name": "PALOS VERDES HIGH",
    "locality": "Palos Verdes Estates",
    "rookie_year": 2014,
    "region": "CA",
    "team_number": 5285,
    "location": "Palos Verdes Estates, CA, USA",
    "key": "frc5285",
    "country_name": "USA",
    "nickname": "Rockin Robotic Sea Kings"
  },
  {
    "website": null,
    "name": "NASA & Banning Academies of Creative and Innovative Sciences",
    "locality": "Wilmington",
    "rookie_year": 2015,
    "region": "CA",
    "team_number": 5432,
    "location": "Wilmington, CA, USA",
    "key": "frc5432",
    "country_name": "USA",
    "nickname": "W.O.N."
  },
  {
    "website": "http://%20schuyler07.wix.com/hamagineering",
    "name": "ALEXANDER HAMILTON SENIOR HIGH",
    "locality": "Los Angeles",
    "rookie_year": 2015,
    "region": "CA",
    "team_number": 5510,
    "location": "Los Angeles, CA, USA",
    "key": "frc5510",
    "country_name": "USA",
    "nickname": "The Da Vinci Coders"
  },
  {
    "website": null,
    "name": "I. Municipalidad de Recoleta & Liceo Valentin Letelier",
    "locality": "Recoleta",
    "rookie_year": 2015,
    "region": "RM",
    "team_number": 5512,
    "location": "Recoleta, RM, Chile",
    "key": "frc5512",
    "country_name": "Chile",
    "nickname": "Da.Evil.Bots"
  },
  {
    "website": "http://monroeengineering.org",
    "name": "JAMES MONROE HIGH",
    "locality": "North Hills",
    "rookie_year": 2015,
    "region": "CA",
    "team_number": 5513,
    "location": "North Hills, CA, USA",
    "key": "frc5513",
    "country_name": "USA",
    "nickname": "Monroe Robotics"
  },
  {
    "website": "http://NP",
    "name": "Municipio de Sop√≥ & Technological Training School & Robotics club",
    "locality": "SOPO",
    "rookie_year": 2015,
    "region": "CUN",
    "team_number": 5521,
    "location": "SOPO, CUN, Colombia",
    "key": "frc5521",
    "country_name": "Colombia",
    "nickname": "WOLF TEAM ROBOTICS"
  },
  {
    "website": "http://www.alhsrobotics.webs.com",
    "name": "ABRAHAM LINCOLN SENIOR HIGH",
    "locality": "Los Angeles",
    "rookie_year": 2015,
    "region": "CA",
    "team_number": 5540,
    "location": "Los Angeles, CA, USA",
    "key": "frc5540",
    "country_name": "USA",
    "nickname": "Lincoln High School Tigers"
  },
  {
    "website": null,
    "name": "ST JOSEPH HIGH SCHOOL",
    "locality": "Lakewood",
    "rookie_year": 2015,
    "region": "CA",
    "team_number": 5634,
    "location": "Lakewood, CA, USA",
    "key": "frc5634",
    "country_name": "USA",
    "nickname": "Jesters"
  },
  {
    "website": null,
    "name": "MANUAL ARTS SENIOR HIGH",
    "locality": "Los Angeles",
    "rookie_year": 2015,
    "region": "CA",
    "team_number": 5647,
    "location": "Los Angeles, CA, USA",
    "key": "frc5647",
    "country_name": "USA",
    "nickname": "BadgerBots"
  },
  {
    "website": null,
    "name": "DON BOSCO TECHNICAL INSTITUTE",
    "locality": "Rosemead",
    "rookie_year": 2015,
    "region": "CA",
    "team_number": 5669,
    "location": "Rosemead, CA, USA",
    "key": "frc5669",
    "country_name": "USA",
    "nickname": "Techmen"
  },
  {
    "website": "http://www.cvrobots.com",
    "name": "NASA Jet Propulsion Laboratory/DreamWorks Animation/WET & CRESCENTA VALLEY HIGH",
    "locality": "La Crescenta",
    "rookie_year": 2001,
    "region": "CA",
    "team_number": 589,
    "location": "La Crescenta, CA, USA",
    "key": "frc589",
    "country_name": "USA",
    "nickname": "Falkon Robotics"
  },
  {
    "website": "http://www.team597.net",
    "name": "The Boeing Company/jcpenney/USC-MESA/Google/Vertirbi School of Engineering/Dr. Judy Flesh Rosenberg/Raytheon/AutoDesk/Amgen/NASA/Computers for Youth/Kissick Family Foundation/Los Angeles Trade Tech/Most Valuable Majors/L. A. City Councilman Bernard C. Parks/Iridescent/Project Lead The Way/Zoe & Steven Green/Board of Education Member, Margaurite Poindexter LaMotte, District 1/Supervisor Mark Riddley-Thomas & FOSHAY LRN CENTER & FOSHAY LRN CENTER",
    "locality": "Los Angeles",
    "rookie_year": 2001,
    "region": "CA",
    "team_number": 597,
    "location": "Los Angeles, CA, USA",
    "key": "frc597",
    "country_name": "USA",
    "nickname": "Wolverines"
  },
  {
    "website": "http://www.robodox599.org",
    "name": "St. Jude Medical & GRANADA HILLS CHARTER HIGH",
    "locality": "Granada Hills",
    "rookie_year": 2001,
    "region": "CA",
    "team_number": 599,
    "location": "Granada Hills, CA, USA",
    "key": "frc599",
    "country_name": "USA",
    "nickname": "Robodox"
  },
  {
    "website": "http://www.robotics-team606.com",
    "name": "Raytheon/Aerospace Corporation/Walker Corporation & KING/DREW MEDICAL MAGNET HIGH",
    "locality": "Los Angeles",
    "rookie_year": 2001,
    "region": "CA",
    "team_number": 606,
    "location": "Los Angeles, CA, USA",
    "key": "frc606",
    "country_name": "USA",
    "nickname": "Cyber Eagles"
  },
  {
    "website": "http://www.camsrobotics.org",
    "name": "The Boeing Company/Northrop-Grumman/Raytheon/CAMS PTSO & CALIFORNIA ACADEMY OF MATHEMATICS AND SCIENCE",
    "locality": "Carson",
    "rookie_year": 2001,
    "region": "CA",
    "team_number": 687,
    "location": "Carson, CA, USA",
    "key": "frc687",
    "country_name": "USA",
    "nickname": "The Nerd Herd"
  },
  {
    "website": "http://www.team691.org",
    "name": "NASA-JPL/St Jude Medical/Bayless Engineering & ACADEMY OF THE CANYONS",
    "locality": "Santa Clarita",
    "rookie_year": 2001,
    "region": "CA",
    "team_number": 691,
    "location": "Santa Clarita, CA, USA",
    "key": "frc691",
    "country_name": "USA",
    "nickname": "Project 691"
  },
  {
    "website": "http://www.team696.org",
    "name": "NASA / JPL / Glendale Unified School District / Lexus of Glendale / IBM / Mary Pinola / Crescenta Valley Chamber of Commerce Education Fund / Gene Haas Foundation / Electromotive & ANDERSON W. CLARK MAGNET HIGH",
    "locality": "La Crescenta",
    "rookie_year": 2001,
    "region": "CA",
    "team_number": 696,
    "location": "La Crescenta, CA, USA",
    "key": "frc696",
    "country_name": "USA",
    "nickname": "Circuit Breakers"
  },
  {
    "website": "http://www.planet702.org",
    "name": "JPL / Google / The Boeing Company / Raytheon / Chevron / Los Angeles Country Regional Occupational Program / Culver City Industrial Hardware / Culver City Rotary Club / Fold-A-Goal / M&K Metals / Joey Davis / Mary C. Davis / CFP Studio Photography / Festo & CULVER CITY HIGH",
    "locality": "Culver City",
    "rookie_year": 2001,
    "region": "CA",
    "team_number": 702,
    "location": "Culver City, CA, USA",
    "key": "frc702",
    "country_name": "USA",
    "nickname": "Bagel Bytes"
  },
  {
    "website": "http://www.huskyrobotics.org",
    "name": "The Boeing Company/MDA Information Systems/Roncelli Plastics/Conoco Phillips & ROLLING HILLS PREP SCHOOL",
    "locality": "San Pedro",
    "rookie_year": 2002,
    "region": "CA",
    "team_number": 848,
    "location": "San Pedro, CA, USA",
    "key": "frc848",
    "country_name": "USA",
    "nickname": "ROBOHUSKIES"
  },
  {
    "website": "http://frc-team-867.ahs.ausd.net",
    "name": "Arcadia Unified School District/NASA/NASA JPL/Los Angeles County ROP/Raytheon & ARCADIA HIGH",
    "locality": "Arcadia",
    "rookie_year": 2002,
    "region": "CA",
    "team_number": 867,
    "location": "Arcadia, CA, USA",
    "key": "frc867",
    "country_name": "USA",
    "nickname": "Absolute Value"
  },
  {
    "website": "http://www.wix.com/rawc968/team968",
    "name": "Ride and Show Engineering/Central Powder Coating/Vivid-Hosting & WEST COVINA HIGH",
    "locality": "West Covina",
    "rookie_year": 2002,
    "region": "CA",
    "team_number": 968,
    "location": "West Covina, CA, USA",
    "key": "frc968",
    "country_name": "USA",
    "nickname": "RAWC (Robotics Alliance Of West Covina)"
  },
  {
    "website": "http://www.greybots.com",
    "name": "Janssen Youth and Youth Sports Fund / JLP Enterprises LLC / Centers for Applied Competitive Technologies, College of the Canyon / Business & Entrepreneurship Center, Cuesta College / Pacific Gas & Electric / IQMS / Brin Wojcicki Foundation / Oak Country Lumber & Ranch / Cal Poly San Luis Obispo & ATASCADERO HIGH & Atascadero Education Foundation, Inc.",
    "locality": "Atascadero",
    "rookie_year": 2002,
    "region": "CA",
    "team_number": 973,
    "location": "Atascadero, CA, USA",
    "key": "frc973",
    "country_name": "USA",
    "nickname": "Greybots"
  },
  {
    "website": "http://www.team980.com",
    "name": "Walt Disney Imagineering / NASA-JPL / Solutions for Automation / Schroeder Torsion Bars / Luminance Technologies / Neighbors Empowering Youth / Crystal View Corp. & FRC Team 980 ThunderBots",
    "locality": "Sylmar",
    "rookie_year": 2002,
    "region": "CA",
    "team_number": 980,
    "location": "Sylmar, CA, USA",
    "key": "frc980",
    "country_name": "USA",
    "nickname": "ThunderBots"
  }
]